{
  "cities": [
    { "name": "New York", "lat": 40.7128, "lng": -74.0060 },
    { "name": "Los Angeles", "lat": 34.0522, "lng": -118.2437 },
    { "name": "Chicago", "lat": 41.8781, "lng": -87.6298 },
    { "name": "Houston", "lat": 29.7604, "lng": -95.3698 },
    { "name": "Phoenix", "lat": 33.4484, "lng": -112.0740 },
    { "name": "Philadelphia", "lat": 39.9526, "lng": -75.1652 },
    { "name": "Toronto", "lat": 43.6510, "lng": -79.347015 },
    { "name": "Vancouver", "lat": 49.2827, "lng": -123.1207 },
    { "name": "Montreal", "lat": 45.5010, "lng": -73.5673 },
    { "name": "Calgary", "lat": 51.0447, "lng": -114.0719 },
    { "name": "Ottawa", "lat": 45.4215, "lng": -75.6972 },
    { "name": "London", "lat": 51.5074, "lng": -0.1278 },
    { "name": "Birmingham", "lat": 52.4862, "lng": -1.8904 },
    { "name": "Manchester", "lat": 53.4808, "lng": -2.2426 },
    { "name": "Glasgow", "lat": 55.8642, "lng": -4.2518 },
    { "name": "Leeds", "lat": 53.8008, "lng": -1.5491 },
    { "name": "Sydney", "lat": -33.8688, "lng": 151.2093 },
    { "name": "Melbourne", "lat": -37.8136, "lng": 144.9631 },
    { "name": "Brisbane", "lat": -27.4698, "lng": 153.0251 },
    { "name": "Perth", "lat": -31.9505, "lng": 115.8605 },
    { "name": "Adelaide", "lat": -34.9285, "lng": 138.6007 },
    { "name": "Berlin", "lat": 52.5200, "lng": 13.4050 },
    { "name": "Munich", "lat": 48.1351, "lng": 11.5820 },
    { "name": "Frankfurt", "lat": 50.1109, "lng": 8.6821 },
    { "name": "Hamburg", "lat": 53.5511, "lng": 9.9937 },
    { "name": "Cologne", "lat": 50.9375, "lng": 6.9603 },
    { "name": "Paris", "lat": 48.8566, "lng": 2.3522 },
    { "name": "Marseille", "lat": 43.2965, "lng": 5.3698 },
    { "name": "Lyon", "lat": 45.7640, "lng": 4.8357 },
    { "name": "Toulouse", "lat": 43.6047, "lng": 1.4442 },
    { "name": "Nice", "lat": 43.7102, "lng": 7.2620 },
    { "name": "Tokyo", "lat": 35.682839, "lng": 139.759455 },
    { "name": "Osaka", "lat": 34.6937, "lng": 135.5023 },
    { "name": "Kyoto", "lat": 35.0116, "lng": 135.7681 },
    { "name": "Yokohama", "lat": 35.4437, "lng": 139.6380 },
    { "name": "Nagoya", "lat": 35.1815, "lng": 136.9066 },
    { "name": "São Paulo", "lat": -23.5505, "lng": -46.6333 },
    { "name": "Rio de Janeiro", "lat": -22.9068, "lng": -43.1729 },
    { "name": "Salvador", "lat": -12.9714, "lng": -38.5014 },
    { "name": "Brasília", "lat": -15.8267, "lng": -47.9218 },
    { "name": "Fortaleza", "lat": -3.7172, "lng": -38.5433 },
    { "name": "New Delhi", "lat": 28.6139, "lng": 77.2090 },
    { "name": "Mumbai", "lat": 19.0760, "lng": 72.8777 },
    { "name": "Bengaluru", "lat": 12.9716, "lng": 77.5946 },
    { "name": "Kolkata", "lat": 22.5726, "lng": 88.3639 },
    { "name": "Chennai", "lat": 13.0827, "lng": 80.2707 },
    { "name": "Beijing", "lat": 39.9042, "lng": 116.4074 },
    { "name": "Shanghai", "lat": 31.2304, "lng": 121.4737 },
    { "name": "Guangzhou", "lat": 23.1291, "lng": 113.2644 },
    { "name": "Shenzhen", "lat": 22.5429, "lng": 114.0579 },
    { "name": "Chengdu", "lat": 30.5728, "lng": 104.0668 },
    { "name": "Kyiv", "lat": 50.4501, "lng": 30.5234 },
    { "name": "Lviv", "lat": 49.8397, "lng": 24.0297 },
    { "name": "Odesa", "lat": 46.4825, "lng": 30.7233 },
    { "name": "Kharkiv", "lat": 49.9935, "lng": 36.2304 },
    { "name": "Dnipro", "lat": 48.4647, "lng": 35.0462 },
    { "name": "Chernihiv", "lat": 51.4892, "lng": 31.3074 }
  ]
}
